[ { name: 'Hardware City',
    address: '7906 Jamaica Ave, Woodhaven, NY 11421',
    coordinates: { lat: 40.6918867, lng: -73.8630323 } },
  { name: 'P C Richard and Son',
    address: '10354 94th St, Ozone Park, NY 11417',
    coordinates: { lat: 40.6804879, lng: -73.84538560000001 } },
  { name: 'Nettel Paging Communications',
    address: '11620 Liberty Ave, South Richmond Hill, NY 11419',
    coordinates: { lat: 40.6857003, lng: -73.8259738 } },
  { name: 'The Home Depot',
    address: '11220 Rockaway Blvd, South Ozone Park, NY 11420',
    coordinates: { lat: 40.6761127, lng: -73.82665150000001 } },
  { name: 'Vaporize Inc.',
    address: '12420 Liberty Ave, South Richmond Hill, NY 11419',
    coordinates: { lat: 40.687812, lng: -73.819338 } },
  { name: 'Crossbay Appliance Service Inc.',
    address: '15834 Crossbay Blvd, Howard Beach, NY 11414',
    coordinates: { lat: 40.65985879999999, lng: -73.8403424 } },
  { name: 'The Five Ten Vape Shoppe',
    address: '7232 Austin St, Forest Hills, NY 11375',
    coordinates: { lat: 40.7187245, lng: -73.8416974 } },
  { name: 'The Home Depot',
    address: '579 Gateway Dr, Brooklyn, NY 11239',
    coordinates: { lat: 40.6531616, lng: -73.8692885 } },
  { name: 'Harrys Paint & Hardware',
    address: '8203 Eliot Ave, Middle Village, NY 11379',
    coordinates: { lat: 40.7260352, lng: -73.87754029999999 } },
  { name: 'Forestiere Power Tool & Equipment Co Inc',
    address: '6202 64th St, Middle Village, NY 11379',
    coordinates: { lat: 40.7141344, lng: -73.89822430000001 } },
  { name: 'P C Richard & Son',
    address: '9263 Queens Blvd, Rego Park, NY 11374',
    coordinates: { lat: 40.7323842, lng: -73.86666989999999 } },
  { name: 'Stuart Electronics',
    address: '7912 Parsons Blvd, Fresh Meadows, NY 11366',
    coordinates: { lat: 40.7205354, lng: -73.8094599 } },
  { name: 'The Home Depot',
    address: '9230 168th St, Jamaica, NY 11433',
    coordinates: { lat: 40.7056079, lng: -73.7926732 } },
  { name: 'New York City Police Department',
    address: '5016 59th Pl, Woodside, NY 11377',
    coordinates: { lat: 40.7366047, lng: -73.90566249999999 } },
  { name: 'The Home Depot',
    address: '13135 Avery Ave, Flushing, NY 11355',
    coordinates: { lat: 40.7526416, lng: -73.8350773 } },
  { name: 'Dewalt Factory Service Center',
    address: '5615 Queens Blvd, Woodside, NY 11377',
    coordinates: { lat: 40.7423339, lng: -73.9086322 } },
  { name: 'VLP Computer',
    address: '18522 Horace Harding Expy, Fresh Meadows, NY 11365',
    coordinates: { lat: 40.7398637, lng: -73.7885807 } },
  { name: 'The Home Depot',
    address: '585 Dekalb Ave, Brooklyn, NY 11205',
    coordinates: { lat: 40.691686, lng: -73.9527884 } },
  { name: 'The Home Depot',
    address: '13230 Merrick Blvd, Jamaica, NY 11434',
    coordinates: { lat: 40.6788892, lng: -73.75943699999999 } },
  { name: 'Murrys True Value Hardware',
    address: '4214 Avenue D, Brooklyn, NY 11203',
    coordinates: { lat: 40.6414673, lng: -73.93651 } },
  { name: 'The Home Depot',
    address: '5010 Northern Blvd, Long Island City, NY 11101',
    coordinates: { lat: 40.752109, lng: -73.91225 } },
  { name: 'The Home Depot',
    address: '7301 25th Ave, East Elmhurst, NY 11370',
    coordinates: { lat: 40.7631162, lng: -73.8947243 } },
  { name: 'The Tool House Rental Inc',
    address: '1700 Utica Ave, Brooklyn, NY 11234',
    coordinates: { lat: 40.6309393, lng: -73.92840439999999 } },
  { name: 'P C Richard & Son',
    address: '2259 Ralph Ave, Brooklyn, NY 11234',
    coordinates: { lat: 40.6222557, lng: -73.91756149999999 } },
  { name: 'The Home Depot',
    address: '12404 31st Ave, Flushing, NY 11354',
    coordinates: { lat: 40.7671557, lng: -73.8435604 } },
  { name: 'Milwaukee Factory Service Centers',
    address: '3068 Whitestone Expy, Flushing, NY 11354',
    coordinates: { lat: 40.7695543, lng: -73.83742149999999 } },
  { name: 'P C Richard & Son',
    address: '3518 Steinway St, Long Island City, NY 11101',
    coordinates: { lat: 40.7545428, lng: -73.9232147 } },
  { name: 'Cell NY',
    address: '475 Myrtle Ave, Brooklyn, NY 11205',
    coordinates: { lat: 40.69358820000001, lng: -73.9661521 } },
  { name: 'COMPUTER IS GOOD',
    address: '18812 Northern Blvd, Flushing, NY 11358',
    coordinates: { lat: 40.7575405, lng: -73.7924158 } },
  { name: 'P C Richard & Son',
    address: '42-99 Francis Lewis Blvd, Bayside, NY 11361',
    coordinates: { lat: 40.75822429999999, lng: -73.78322399999999 } },
  { name: 'The Home Depot',
    address: '5700 Avenue U, Brooklyn, NY 11234',
    coordinates: { lat: 40.6119661, lng: -73.91656379999999 } },
  { name: 'Lowes',
    address: '5602 Avenue U, Brooklyn, NY 11234',
    coordinates: { lat: 40.6114521, lng: -73.91881049999999 } },
  { name: 'Pintchik',
    address: '478 Bergen St, Brooklyn, NY 11217',
    coordinates: { lat: 40.680676, lng: -73.9755534 } },
  { name: 'Staples',
    address: '2441 31st St, Astoria, NY 11102',
    coordinates: { lat: 40.7711855, lng: -73.9162796 } },
  { name: 'Barnes and Noble',
    address: '267 7th Ave, Brooklyn, NY 11215',
    coordinates: { lat: 40.6687284, lng: -73.9796944 } },
  { name: 'Marine Park Hardware',
    address: '3502 Avenue S, Brooklyn, NY 11234',
    coordinates: { lat: 40.6091616, lng: -73.93178 } },
  { name: 'Duane Reade Inc',
    address: '194 E 2nd St, New York, NY 10009',
    coordinates: { lat: 40.722343, lng: -73.9836916 } },
  { name: 'The Mac Support Store',
    address: '168 7th St Ste 2E, Brooklyn, NY 11215',
    coordinates: { lat: 40.6728823, lng: -73.990971 } },
  { name: 'Whitestone Hardware',
    address: '1248 150th St, Whitestone, NY 11357',
    coordinates: { lat: 40.78946579999999, lng: -73.814348 } },
  { name: 'Lowes',
    address: '118 2nd Ave, Brooklyn, NY 11215',
    coordinates: { lat: 40.6720082, lng: -73.9938846 } },
  { name: 'Greschlers Inc.',
    address: '660 5th Ave, Brooklyn, NY 11215',
    coordinates: { lat: 40.6622932, lng: -73.9926313 } },
  { name: 'The Home Depot',
    address: '550 Hamilton Ave, Brooklyn, NY 11232',
    coordinates: { lat: 40.6680339, lng: -73.9986061 } },
  { name: 'The Home Depot',
    address: '101 Green Acres Rd, Valley Stream, NY 11581',
    coordinates: { lat: 40.6596797, lng: -73.7247824 } },
  { name: 'P C Richard & Son',
    address: '120 E 14th St, New York, NY 10003',
    coordinates: { lat: 40.7336393, lng: -73.988742 } },
  { name: 'Barnes & Noble',
    address: '33 E 17th St, New York, NY 10003',
    coordinates: { lat: 40.7370214, lng: -73.9896026 } },
  { name: 'J and M Hardware',
    address: '19 E 21st St, New York, NY 10010',
    coordinates: { lat: 40.73978779999999, lng: -73.9889486 } },
  { name: 'Staples',
    address: '16 E 34th St, New York, NY 10016',
    coordinates: { lat: 40.7477593, lng: -73.9837835 } },
  { name: 'The Home Depot',
    address: '600 Hempstead Tpke, Elmont, NY 11003',
    coordinates: { lat: 40.7067565, lng: -73.6624047 } },
  { name: 'Hilti',
    address: '797 3rd Ave, Brooklyn, NY 11232',
    coordinates: { lat: 40.6599878, lng: -74.00129849999999 } },
  { name: 'Duane Reade',
    address: '1235 Lexington Ave, New York, NY 10028',
    coordinates: { lat: 40.7779336, lng: -73.9564863 } } ]
